{
  "items": [
    {
      "id": 0,
      "title": "Петропавловская крепость",
      "latitude": 59.95042,
      "longitude": 30.318849
    },
    {
      "id": 1,
      "title": "Газпром арена",
      "latitude": 59.972434,
      "longitude": 30.222076
    },
    {
      "id": 2,
      "title": "Московский парк Победы",
      "latitude": 59.868251,
      "longitude": 30.330348
    },
    {
      "id": 3,
      "title": "Константиновский парк",
      "latitude": 59.856706,
      "longitude": 30.059367
    },
    {
      "id": 4,
      "title": "Петергоф (Верхний сад)",
      "latitude": 59.881772,
      "longitude": 29.908021
    },
    {
      "id": 5,
      "title": "Кронштадт",
      "latitude": 59.992155,
      "longitude": 29.769721
    },
    {
      "id": 6,
      "title": "Протей, НТЦ",
      "latitude": 59.974186,
      "longitude": 30.337374
    },
    {
      "id": 7,
      "title": "Лахта",
      "latitude": 59.986704,
      "longitude": 30.178041
    }
  ]
}
